City_ID,City,Country,Date,Lat,Lng,Max Temp,Humidity,Cloudiness,Wind Speed,Current Description,Rain inches (last 3 hrs),Snow inches (last 3 hrs)
0,Longyearbyen,SJ,2020-04-19 00:00:11,78.22,15.64,28.4,92,20,2.24,few clouds,0.0,0.0
1,Bredasdorp,ZA,2020-04-18 23:57:12,-34.53,20.04,50.0,87,55,2.24,broken clouds,0.0,0.0
2,Sabang,ID,2020-04-19 00:00:50,5.89,95.32,82.45,72,83,3.36,broken clouds,0.0,0.0
3,Richards Bay,ZA,2020-04-19 00:00:50,-28.78,32.04,72.46,79,40,8.46,light rain,0.23,0.0
4,Ilulissat,GL,2020-04-18 23:57:44,69.22,-51.1,23.0,85,100,8.05,overcast clouds,0.0,0.0
5,Bluff,NZ,2020-04-19 00:00:50,-46.6,168.33,55.99,67,100,11.01,light rain,0.11,0.0
6,Rikitea,PF,2020-04-19 00:00:35,-23.12,-134.97,77.41,70,42,5.93,scattered clouds,0.0,0.0
7,Vaini,TO,2020-04-19 00:00:50,-21.2,-175.2,80.6,74,40,12.75,scattered clouds,0.0,0.0
8,Mataura,NZ,2020-04-19 00:00:50,-46.19,168.86,55.99,67,80,11.01,light rain,0.11,0.0
9,Kavieng,PG,2020-04-19 00:00:50,-2.57,150.8,82.99,74,93,4.9,light rain,1.56,0.0
10,Port Lincoln,AU,2020-04-18 23:56:00,-34.73,135.87,62.51,63,63,16.31,broken clouds,0.0,0.0
11,Port Blair,IN,2020-04-19 00:00:50,11.67,92.75,83.28,74,17,6.06,few clouds,0.0,0.0
12,Ushuaia,AR,2020-04-19 00:00:38,-54.8,-68.3,46.4,61,40,11.41,scattered clouds,0.0,0.0
13,Puerto Carreno,CO,2020-04-18 23:56:25,6.19,-67.49,78.8,83,40,13.6,scattered clouds,0.0,0.0
14,Berdsk,RU,2020-04-19 00:00:50,54.76,83.1,30.2,80,1,2.24,smoke,0.0,0.0
15,Qinhuangdao,CN,2020-04-19 00:00:50,39.93,119.59,56.37,50,100,6.08,overcast clouds,0.0,0.0
16,Hermanus,ZA,2020-04-19 00:00:50,-34.42,19.23,64.0,66,78,3.0,broken clouds,0.0,0.0
17,Isangel,VU,2020-04-19 00:00:50,-19.55,169.27,80.6,78,75,6.93,broken clouds,0.0,0.0
18,Yellowknife,CA,2020-04-19 00:00:50,62.46,-114.35,26.6,92,90,10.29,light snow,0.0,0.0
19,Takoradi,GH,2020-04-19 00:00:50,4.88,-1.76,80.42,86,47,7.07,light rain,1.76,0.0
20,Mattawa,US,2020-04-19 00:00:50,46.74,-119.9,68.0,39,90,4.7,overcast clouds,0.0,0.0
21,Bilibino,RU,2020-04-19 00:00:51,68.05,166.44,7.97,79,71,5.64,broken clouds,0.0,0.0
22,Punta Arenas,CL,2020-04-19 00:00:51,-53.15,-70.92,48.2,66,40,16.11,scattered clouds,0.0,0.0
23,Itarema,BR,2020-04-19 00:00:51,-2.92,-39.92,77.56,83,31,1.52,scattered clouds,0.0,0.0
24,Periyapatti,IN,2020-04-19 00:00:51,10.75,77.27,80.6,83,20,2.24,few clouds,0.0,0.0
25,Manjacaze,MZ,2020-04-19 00:00:51,-24.71,33.88,69.01,86,4,6.87,clear sky,0.0,0.0
26,Halifax,CA,2020-04-19 00:00:51,44.65,-63.57,34.0,74,100,3.0,snow,0.0,0.0
27,Albany,US,2020-04-18 23:56:55,42.6,-73.97,46.0,72,76,11.52,light rain,0.22,0.0
28,New Norfolk,AU,2020-04-18 23:59:33,-42.78,147.06,54.0,82,79,2.19,broken clouds,0.0,0.0
29,Ayr,GB,2020-04-19 00:00:51,55.46,-4.63,41.0,80,2,9.17,clear sky,0.0,0.0
30,Nikolskoye,RU,2020-04-19 00:00:51,59.7,30.79,36.0,93,90,8.95,overcast clouds,0.0,0.0
31,Kaitangata,NZ,2020-04-18 23:57:23,-46.28,169.85,57.0,55,82,8.01,broken clouds,0.0,0.0
32,Taoudenni,ML,2020-04-19 00:00:29,22.68,-3.98,77.72,53,30,15.19,scattered clouds,0.0,0.0
33,Magadan,RU,2020-04-19 00:00:51,59.57,150.8,13.03,85,100,10.49,overcast clouds,0.0,0.0
34,Hilo,US,2020-04-18 23:59:43,19.73,-155.09,82.4,58,20,11.41,few clouds,0.0,0.0
35,Phan Thiet,VN,2020-04-19 00:00:51,10.93,108.1,80.4,78,98,7.34,overcast clouds,0.0,0.0
36,Saldanha,ZA,2020-04-18 23:57:52,-33.01,17.94,64.4,55,96,8.05,overcast clouds,0.0,0.0
37,Hithadhoo,MV,2020-04-18 23:59:38,-0.6,73.08,83.93,73,79,11.03,broken clouds,0.0,0.0
38,Redwater,US,2020-04-18 23:59:51,33.36,-94.25,66.99,48,1,8.05,clear sky,0.0,0.0
39,Dong Hoi,VN,2020-04-18 23:57:31,17.48,106.6,79.84,72,38,4.27,scattered clouds,0.0,0.0
40,East London,ZA,2020-04-19 00:00:09,-33.02,27.91,69.89,66,0,18.19,clear sky,0.0,0.0
41,Gavle,SE,2020-04-19 00:00:52,60.67,17.14,39.0,65,20,4.0,few clouds,0.0,0.0
42,Thompson,CA,2020-04-18 23:59:51,55.74,-97.86,17.6,37,20,14.99,few clouds,0.0,0.0
43,Nouadhibou,MR,2020-04-19 00:00:52,20.93,-17.03,68.0,77,0,13.87,clear sky,0.0,0.0
44,Khatanga,RU,2020-04-18 23:57:39,71.97,102.5,14.76,94,0,4.16,clear sky,0.0,0.0
45,Mar Del Plata,AR,2020-04-18 23:57:34,-38.0,-57.56,66.2,68,24,6.93,few clouds,0.0,0.0
46,Avarua,CK,2020-04-19 00:00:52,-21.21,-159.78,82.4,65,70,8.05,broken clouds,0.0,0.0
47,Port Alfred,ZA,2020-04-19 00:00:52,-33.59,26.89,63.0,88,0,4.0,clear sky,0.0,0.0
48,Kotido,UG,2020-04-19 00:00:52,2.98,34.13,67.08,64,100,6.08,moderate rain,4.47,0.0
49,Baruun-Urt,MN,2020-04-19 00:00:52,46.68,113.28,38.32,43,88,18.77,overcast clouds,0.0,0.0
50,Acajutla,SV,2020-04-19 00:00:52,13.59,-89.83,91.4,43,40,4.7,scattered clouds,0.0,0.0
51,Saint-Philippe,RE,2020-04-19 00:00:52,-21.36,55.77,77.0,78,20,16.11,few clouds,0.0,0.0
52,Tamandare,BR,2020-04-19 00:00:52,-8.76,-35.1,80.96,80,94,8.57,light rain,2.34,0.0
53,Cabo San Lucas,MX,2020-04-18 23:59:33,22.89,-109.91,75.99,60,5,16.11,clear sky,0.0,0.0
54,Bulgan,MN,2020-04-18 23:57:17,48.81,103.53,32.86,47,30,3.27,scattered clouds,0.0,0.0
55,Jamestown,US,2020-04-18 23:56:57,42.1,-79.24,45.0,41,1,10.29,clear sky,0.0,0.0
56,Pastavy,BY,2020-04-19 00:00:53,55.12,26.83,32.32,87,42,8.39,scattered clouds,0.0,0.0
57,Dunedin,NZ,2020-04-18 23:56:25,-45.87,170.5,59.0,44,72,8.01,light rain,0.11,0.0
58,Kapaa,US,2020-04-19 00:00:53,22.08,-159.32,80.6,65,1,6.93,clear sky,0.0,0.0
59,Mbandaka,CD,2020-04-18 23:56:00,0.05,18.26,70.93,88,79,1.88,light rain,0.44,0.0
60,Obo,CF,2020-04-19 00:00:53,5.4,26.49,69.39,63,91,3.65,overcast clouds,0.0,0.0
61,Tabou,CI,2020-04-18 23:57:37,4.42,-7.35,79.34,86,100,7.83,light rain,0.27,0.0
62,Beira,MZ,2020-04-19 00:00:53,-19.84,34.84,78.8,74,40,18.34,scattered clouds,0.0,0.0
63,Atuona,PF,2020-04-18 23:56:09,-9.8,-139.03,82.0,75,95,17.6,overcast clouds,0.0,0.0
64,Moerai,PF,2020-04-19 00:00:53,-22.43,-151.33,81.19,73,35,6.42,scattered clouds,0.0,0.0
65,Butaritari,KI,2020-04-19 00:00:53,3.07,172.79,83.34,77,88,17.34,light rain,1.96,0.0
66,Tiksi,RU,2020-04-19 00:00:53,71.69,128.87,10.29,85,68,3.94,broken clouds,0.0,0.0
67,Waipawa,NZ,2020-04-19 00:00:40,-41.41,175.52,64.4,59,2,18.34,clear sky,0.0,0.0
68,Saint George,US,2020-04-18 23:59:16,37.1,-113.58,69.8,28,40,12.75,scattered clouds,0.0,0.0
69,Kisangani,CD,2020-04-19 00:00:53,0.52,25.2,70.77,86,87,2.01,light rain,2.4,0.0
70,San Luis,AR,2020-04-19 00:00:53,-33.3,-66.34,67.21,33,0,13.85,clear sky,0.0,0.0
71,Bogovarovo,RU,2020-04-19 00:00:53,58.98,47.02,31.15,95,99,2.64,overcast clouds,0.0,0.0
72,Barrow,US,2020-04-19 00:00:53,71.29,-156.79,6.8,71,1,11.41,clear sky,0.0,0.0
73,Meulaboh,ID,2020-04-18 23:56:51,4.14,96.13,78.66,83,68,5.06,light rain,0.11,0.0
74,Upernavik,GL,2020-04-19 00:00:54,72.79,-56.15,22.95,90,99,14.5,overcast clouds,0.0,0.0
75,Evensk,RU,2020-04-19 00:00:54,61.95,159.23,18.86,88,100,11.7,overcast clouds,0.0,0.0
76,Soe,ID,2020-04-19 00:00:54,-9.86,124.28,72.34,62,22,2.57,few clouds,0.0,0.0
77,Filadelfia,US,2020-04-19 00:00:33,39.95,-75.16,46.4,42,40,12.75,scattered clouds,0.0,0.0
78,Cape Town,ZA,2020-04-18 23:57:00,-33.93,18.42,67.87,49,85,3.89,overcast clouds,0.0,0.0
79,Dikson,RU,2020-04-19 00:00:54,73.51,80.55,35.65,87,100,20.71,overcast clouds,0.0,0.0
80,San Patricio,MX,2020-04-19 00:00:54,19.22,-104.7,78.8,83,20,13.87,few clouds,0.0,0.0
81,Zhigansk,RU,2020-04-19 00:00:41,66.77,123.37,6.84,93,78,12.3,broken clouds,0.0,0.0
82,Whitehorse,CA,2020-04-18 23:56:40,60.72,-135.05,59.0,26,20,2.24,few clouds,0.0,0.0
83,Upala,CR,2020-04-19 00:00:54,10.9,-85.01,93.2,34,21,16.11,few clouds,0.0,0.0
84,Murgab,TM,2020-04-19 00:00:54,37.5,61.97,60.8,63,100,4.7,overcast clouds,0.0,0.0
85,Luderitz,NA,2020-04-19 00:00:54,-26.65,15.16,59.0,93,4,9.17,clear sky,0.0,0.0
86,Gistrup,DK,2020-04-19 00:00:54,56.99,9.99,32.0,78,0,5.48,clear sky,0.0,0.0
87,Cap Malheureux,MU,2020-04-18 23:57:22,-19.98,57.61,77.0,83,40,11.41,shower rain,0.0,0.0
88,Laguna,US,2020-04-19 00:00:54,38.42,-121.42,69.01,45,1,13.87,clear sky,0.0,0.0
89,Rawson,AR,2020-04-18 23:56:48,-43.3,-65.1,69.31,54,88,9.24,overcast clouds,0.0,0.0
90,Dickinson,US,2020-04-18 23:56:02,29.46,-95.05,70.0,94,90,10.29,light rain,0.0,0.0
91,Erzin,TR,2020-04-19 00:00:54,36.96,36.2,64.4,63,61,10.29,broken clouds,0.0,0.0
92,Carnarvon,AU,2020-04-19 00:00:55,-24.87,113.63,71.6,88,72,5.82,broken clouds,0.0,0.0
93,Tomioka,JP,2020-04-19 00:00:55,36.25,138.9,56.59,52,25,8.59,scattered clouds,0.0,0.0
94,Catarama,EC,2020-04-19 00:00:55,-1.58,-79.47,78.13,81,45,0.36,light rain,1.63,0.0
95,Kodiak,US,2020-04-18 23:56:03,57.79,-152.41,46.4,75,20,13.87,few clouds,0.0,0.0
96,Smolenka,RU,2020-04-19 00:00:55,52.14,113.5,24.8,53,20,13.42,few clouds,0.0,0.0
97,Solnechnyy,RU,2020-04-19 00:00:55,50.72,136.63,36.86,67,92,3.02,overcast clouds,0.0,0.0
98,Lodja,CD,2020-04-19 00:00:55,-3.48,23.43,69.82,85,56,1.59,light rain,0.33,0.0
99,Nome,US,2020-04-19 00:00:55,64.5,-165.41,34.0,100,90,8.05,mist,0.0,0.0
100,Padang,ID,2020-04-18 23:57:12,-0.95,100.35,78.55,78,85,4.23,light rain,0.33,0.0
101,Huangmei,CN,2020-04-19 00:00:55,30.19,116.03,58.66,85,97,9.35,overcast clouds,0.0,0.0
102,Ribeira Grande,PT,2020-04-18 23:57:18,38.52,-28.7,61.86,85,100,15.57,light rain,0.63,0.0
103,Lebu,CL,2020-04-19 00:00:55,-37.62,-73.65,54.84,91,51,2.13,broken clouds,0.0,0.0
104,Busselton,AU,2020-04-19 00:00:55,-33.65,115.33,61.0,96,95,22.03,light rain,0.83,0.0
105,Udachnyy,RU,2020-04-19 00:00:55,66.42,112.4,10.4,43,1,4.47,clear sky,0.0,0.0
106,Mazagao,BR,2020-04-19 00:00:55,-0.12,-51.29,82.4,94,66,9.17,broken clouds,0.0,0.0
107,Las Vegas,US,2020-04-19 00:00:39,36.17,-115.14,73.0,26,20,4.7,few clouds,0.0,0.0
108,Chuy,UY,2020-04-18 23:57:15,-33.7,-53.46,64.35,86,10,9.82,clear sky,0.0,0.0
109,Bilokurakyne,UA,2020-04-19 00:00:55,49.53,38.73,38.35,70,17,2.04,few clouds,0.0,0.0
110,Tual,ID,2020-04-19 00:00:55,-5.67,132.75,84.04,75,98,8.05,moderate rain,3.36,0.0
111,Kruisfontein,ZA,2020-04-19 00:00:56,-34.0,24.73,65.39,36,0,6.62,clear sky,0.0,0.0
112,Winter Garden,US,2020-04-18 23:57:02,28.57,-81.59,79.0,79,98,7.02,light rain,1.9,0.0
113,Saskylakh,RU,2020-04-19 00:00:56,71.92,114.08,14.07,85,0,5.01,clear sky,0.0,0.0
114,Igrim,RU,2020-04-19 00:00:56,63.19,64.42,35.15,97,100,4.54,light rain,1.63,0.0
115,Sindor,RU,2020-04-19 00:00:56,62.86,51.89,31.17,95,93,3.47,overcast clouds,0.0,0.0
116,Alnashi,RU,2020-04-19 00:00:56,56.19,52.48,33.69,86,45,7.14,scattered clouds,0.0,0.0
117,Castro,BR,2020-04-19 00:00:56,-24.79,-50.01,56.71,69,47,6.08,scattered clouds,0.0,0.0
118,Sungaipenuh,ID,2020-04-19 00:00:56,-2.08,101.38,66.9,72,75,1.74,light rain,1.84,0.0
119,Fomboni,KM,2020-04-19 00:00:56,-12.28,43.74,82.76,72,75,10.85,light rain,0.16,0.0
120,Vila Velha,BR,2020-04-19 00:00:56,-20.33,-40.29,75.2,78,75,10.29,broken clouds,0.0,0.0
121,Chimbote,PE,2020-04-19 00:00:56,-9.09,-78.58,71.22,82,2,8.25,clear sky,0.0,0.0
122,Severo-Kurilsk,RU,2020-04-18 23:57:20,50.68,156.12,34.54,89,22,13.94,few clouds,0.0,0.0
123,Qaanaaq,GL,2020-04-18 23:56:32,77.48,-69.36,21.69,88,100,19.26,overcast clouds,0.0,0.0
124,Lipin Bor,RU,2020-04-19 00:00:56,60.26,37.98,29.01,98,72,3.33,broken clouds,0.0,0.0
125,Sur,OM,2020-04-19 00:00:57,22.57,59.53,81.27,55,19,8.14,few clouds,0.0,0.0
126,Srednekolymsk,RU,2020-04-18 23:57:05,67.45,153.68,2.23,89,81,11.12,broken clouds,0.0,0.0
127,Maxhutte-Haidhof,DE,2020-04-19 00:00:06,49.2,12.1,55.4,76,20,4.7,few clouds,0.0,0.0
128,Mastic Beach,US,2020-04-18 23:56:19,40.77,-72.85,43.0,81,72,1.01,broken clouds,0.0,0.0
129,Ihosy,MG,2020-04-19 00:00:57,-22.4,46.12,65.23,70,57,8.28,broken clouds,0.0,0.0
130,Taltal,CL,2020-04-19 00:00:57,-25.4,-70.48,63.88,72,27,4.94,scattered clouds,0.0,0.0
131,Santa Luzia,BR,2020-04-19 00:00:57,-19.77,-43.85,68.0,77,75,11.41,broken clouds,0.0,0.0
132,Paamiut,GL,2020-04-19 00:00:57,61.99,-49.67,26.33,93,100,16.58,light snow,0.0,1.45
133,Biak,ID,2020-04-19 00:00:57,-0.91,122.88,81.5,73,9,1.9,light rain,0.32,0.0
134,Bethel,US,2020-04-19 00:00:57,41.37,-73.41,39.99,78,73,1.01,light rain,0.15,0.0
135,Esperance,AU,2020-04-18 23:56:02,-33.87,121.9,59.0,93,100,14.99,overcast clouds,0.0,0.0
136,Cherskiy,RU,2020-04-19 00:00:57,68.75,161.3,7.32,88,22,8.97,few clouds,0.0,0.0
137,Ceuta,ES,2020-04-19 00:00:57,35.89,-5.31,64.4,82,59,2.24,light rain,0.11,0.0
138,Ancud,CL,2020-04-19 00:00:53,-41.87,-73.82,55.4,82,90,6.93,overcast clouds,0.0,0.0
139,Kailua,US,2020-04-18 23:59:39,21.4,-157.74,82.4,54,75,10.29,broken clouds,0.0,0.0
140,Fare,PF,2020-04-19 00:00:57,-16.7,-151.02,83.48,75,37,11.25,light rain,2.9,0.0
141,Tilichiki,RU,2020-04-19 00:00:57,60.47,166.1,10.78,91,0,10.83,clear sky,0.0,0.0
142,Riyadh,SA,2020-04-19 00:00:25,24.69,46.72,75.2,57,100,3.36,dust,0.0,0.0
143,Caravelas,BR,2020-04-19 00:00:58,-17.71,-39.25,76.51,78,93,17.25,overcast clouds,0.0,0.0
144,Zhanakorgan,KZ,2020-04-19 00:00:58,43.91,67.25,61.93,28,0,6.96,clear sky,0.0,0.0
145,Saquena,PE,2020-04-19 00:00:58,-4.67,-73.52,77.11,71,89,1.83,overcast clouds,0.0,0.0
146,Paveh,IR,2020-04-19 00:00:58,35.04,46.36,46.18,46,0,3.47,clear sky,0.0,0.0
147,Botucatu,BR,2020-04-18 23:58:25,-22.89,-48.45,58.01,73,16,9.66,few clouds,0.0,0.0
148,Bengkulu,ID,2020-04-19 00:00:38,-3.8,102.27,77.59,83,87,3.89,light rain,0.28,0.0
149,Maldonado,UY,2020-04-19 00:00:58,-34.67,-54.92,64.4,88,0,3.36,clear sky,0.0,0.0
150,Mount Gambier,AU,2020-04-19 00:00:58,-37.83,140.77,48.2,100,90,5.82,overcast clouds,0.0,0.0
151,Aanekoski,FI,2020-04-19 00:00:58,62.69,25.82,33.01,96,24,9.17,few clouds,0.0,0.0
152,Faanui,PF,2020-04-19 00:00:58,-16.48,-151.75,82.78,74,25,10.63,light rain,2.43,0.0
153,Cabra,ES,2020-04-19 00:00:58,37.47,-4.44,62.01,87,44,3.36,light rain,0.72,0.0
154,Melchor Ocampo,MX,2020-04-19 00:00:58,19.7,-99.15,77.0,33,90,9.17,thunderstorm,0.0,0.0
155,Lagoa,PT,2020-04-18 23:55:59,39.05,-27.98,62.22,84,100,17.72,light rain,0.77,0.0
156,Norman Wells,CA,2020-04-19 00:00:58,65.28,-126.83,39.2,86,90,14.99,light rain,0.0,0.0
157,Vestmannaeyjar,IS,2020-04-18 23:57:43,63.44,-20.27,45.41,93,100,14.79,light rain,2.25,0.0
158,Porto Novo,BJ,2020-04-19 00:00:53,6.5,2.6,84.2,83,40,9.17,scattered clouds,0.0,0.0
159,Ahipara,NZ,2020-04-19 00:00:58,-35.17,173.17,67.3,74,91,9.64,overcast clouds,0.0,0.0
160,Provideniya,RU,2020-04-19 00:00:55,64.38,-173.3,23.2,96,100,13.89,light snow,0.0,0.93
161,Marawi,PH,2020-04-19 00:00:59,8.0,124.29,77.77,56,75,2.15,broken clouds,0.0,0.0
162,Berlevag,NO,2020-04-19 00:00:59,70.86,29.09,34.47,87,70,10.25,broken clouds,0.0,0.0
163,Airai,TL,2020-04-18 23:57:38,-8.93,125.41,68.59,48,59,3.67,broken clouds,0.0,0.0
164,Okha,RU,2020-04-19 00:00:59,53.57,142.95,26.1,86,56,2.26,broken clouds,0.0,0.0
165,Tuktoyaktuk,CA,2020-04-19 00:00:59,69.45,-133.04,10.4,78,75,9.17,broken clouds,0.0,0.0
166,Apache Junction,US,2020-04-19 00:00:59,33.42,-111.55,79.0,20,5,6.93,clear sky,0.0,0.0
167,Touros,BR,2020-04-18 23:56:56,-5.2,-35.46,80.6,88,75,2.24,broken clouds,0.0,0.0
168,Basoko,CD,2020-04-19 00:00:59,1.24,23.62,71.85,87,98,1.97,light rain,1.48,0.0
169,Buala,SB,2020-04-18 23:57:00,-8.14,159.59,83.89,71,72,2.86,broken clouds,0.0,0.0
170,Te Anau,NZ,2020-04-18 23:56:05,-45.42,167.72,47.26,72,92,9.48,light rain,0.9,0.0
171,Quelimane,MZ,2020-04-19 00:00:59,-17.88,36.89,78.8,88,75,6.93,broken clouds,0.0,0.0
172,Portland,US,2020-04-18 23:56:21,45.52,-122.68,54.0,76,90,5.82,light rain,0.0,0.0
173,Amapa,BR,2020-04-19 00:00:59,1.0,-52.0,73.38,92,64,2.19,light rain,2.25,0.0
174,Les Cayes,HT,2020-04-19 00:00:59,18.2,-73.75,79.63,77,11,5.37,few clouds,0.0,0.0
175,Lock Haven,US,2020-04-18 23:57:50,41.14,-77.45,43.0,61,32,2.48,scattered clouds,0.0,0.0
176,Vila Franca Do Campo,PT,2020-04-19 00:00:59,37.72,-25.43,62.6,93,75,13.87,broken clouds,0.0,0.0
177,Hobart,AU,2020-04-19 00:00:27,-42.88,147.33,55.99,76,75,8.05,broken clouds,0.0,0.0
178,Businga,CD,2020-04-19 00:00:59,3.33,20.88,70.2,82,68,1.57,broken clouds,0.0,0.0
179,Niamey,NE,2020-04-19 00:01:00,13.51,2.11,95.0,23,11,5.82,dust,0.0,0.0
180,Sitka,US,2020-04-18 23:58:31,57.05,-135.33,51.8,81,40,5.82,scattered clouds,0.0,0.0
181,Los Llanos De Aridane,ES,2020-04-18 23:59:20,28.66,-17.92,66.2,68,5,16.11,clear sky,0.0,0.0
182,Dingle,PH,2020-04-18 23:59:30,11.0,122.67,83.3,71,13,11.9,light rain,0.13,0.0
183,Georgetown,MY,2020-04-18 23:59:13,5.41,100.34,82.4,94,40,4.7,scattered clouds,0.0,0.0
184,Tiarei,PF,2020-04-18 23:58:04,-17.53,-149.33,86.0,74,41,5.82,light rain,1.16,0.0
185,Ponta Do Sol,PT,2020-04-18 23:58:13,32.67,-17.1,57.99,60,7,1.99,clear sky,0.0,0.0
186,Rosita,NI,2020-04-19 00:01:00,13.93,-84.4,80.91,60,57,3.87,broken clouds,0.0,0.0
187,Torbay,CA,2020-04-19 00:01:00,47.67,-52.73,33.01,91,20,13.87,few clouds,0.0,0.0
188,Fukue,JP,2020-04-18 23:56:53,32.69,128.84,57.2,76,75,6.93,broken clouds,0.0,0.0
189,Alekseyevka,RU,2020-04-19 00:01:00,50.63,38.69,36.79,75,3,5.37,clear sky,0.0,0.0
190,Shizunai,JP,2020-04-19 00:01:00,42.33,142.37,49.15,55,100,7.38,overcast clouds,0.0,0.0
191,Nadvoitsy,RU,2020-04-19 00:01:00,63.87,34.32,32.0,94,100,9.78,light snow,0.0,0.19
192,Horasan,TR,2020-04-19 00:01:00,40.05,42.17,47.08,42,98,4.47,light rain,0.78,0.0
193,Katsuura,JP,2020-04-18 23:57:26,35.13,140.3,62.01,57,5,20.02,clear sky,0.0,0.0
194,Nador,MA,2020-04-18 23:57:49,35.17,-2.93,62.6,93,75,3.36,broken clouds,0.0,0.0
195,Mackay,AU,2020-04-18 23:56:41,-21.15,149.2,84.0,78,75,5.82,broken clouds,0.0,0.0
196,Lasa,IT,2020-04-19 00:00:23,46.62,10.7,51.8,66,81,9.17,light rain,0.32,0.0
197,Faya,SA,2020-04-19 00:01:00,18.39,42.45,62.6,82,20,6.93,few clouds,0.0,0.0
198,Hare Bay,CA,2020-04-19 00:01:00,48.85,-54.01,32.0,97,20,6.93,few clouds,0.0,0.0
199,Tuatapere,NZ,2020-04-19 00:01:00,-46.13,167.68,55.99,67,47,11.01,light rain,0.43,0.0
200,Anadyr,RU,2020-04-18 23:58:15,64.75,177.48,15.8,85,90,13.42,light snow,0.0,0.0
201,Hirtshals,DK,2020-04-19 00:01:00,57.59,9.96,41.38,68,0,7.07,clear sky,0.0,0.0
202,San Quintin,MX,2020-04-18 23:58:58,30.48,-115.95,62.28,67,0,19.28,clear sky,0.0,0.0
203,Lethem,GY,2020-04-19 00:01:01,3.38,-59.8,86.43,45,6,2.75,light rain,0.37,0.0
204,Kieta,PG,2020-04-19 00:00:13,-6.22,155.63,85.6,64,65,0.92,broken clouds,0.0,0.0
205,Antofagasta,CL,2020-04-19 00:01:01,-23.65,-70.4,64.4,77,40,11.41,scattered clouds,0.0,0.0
206,Grindavik,IS,2020-04-19 00:01:01,63.84,-22.43,35.6,100,90,4.7,light rain,0.0,0.0
207,Nanakuli,US,2020-04-18 23:57:34,21.39,-158.15,82.4,54,1,10.29,clear sky,0.0,0.0
208,Talnakh,RU,2020-04-18 23:57:51,69.49,88.4,35.6,80,100,33.55,overcast clouds,0.0,0.0
209,Aldan,RU,2020-04-18 23:56:22,58.6,125.39,10.62,86,95,8.14,light snow,0.0,0.11
210,Iqaluit,CA,2020-04-18 23:59:40,63.75,-68.51,3.2,71,20,6.93,few clouds,0.0,0.0
211,Mangrol,IN,2020-04-18 23:56:37,21.12,70.12,79.11,68,19,10.8,few clouds,0.0,0.0
212,Kavali,IN,2020-04-19 00:01:01,14.92,79.98,77.07,90,3,13.2,clear sky,0.0,0.0
213,Morondava,MG,2020-04-18 23:56:15,-20.28,44.28,76.55,71,0,5.97,clear sky,0.0,0.0
214,Thinadhoo,MV,2020-04-18 23:56:17,0.53,72.93,83.66,76,94,11.92,overcast clouds,0.0,0.0
215,Permet,AL,2020-04-19 00:01:01,40.23,20.35,50.0,53,48,0.81,scattered clouds,0.0,0.0
216,Salinas,US,2020-04-19 00:01:01,36.68,-121.66,62.6,55,90,12.75,overcast clouds,0.0,0.0
217,At-Bashi,KG,2020-04-19 00:01:01,41.17,75.81,39.13,27,22,2.28,few clouds,0.0,0.0
218,Paka,MY,2020-04-19 00:01:01,4.64,103.44,77.0,94,40,1.12,scattered clouds,0.0,0.0
219,Catuday,PH,2020-04-19 00:01:02,16.29,119.81,81.64,72,88,10.71,overcast clouds,0.0,0.0
220,San Juan De Uraba,CO,2020-04-19 00:01:02,8.76,-76.53,79.97,84,69,9.64,broken clouds,0.0,0.0
221,Comodoro Rivadavia,AR,2020-04-19 00:00:02,-45.87,-67.5,66.2,39,71,11.41,broken clouds,0.0,0.0
222,Oranjemund,NA,2020-04-19 00:01:02,-28.55,16.43,56.84,82,9,2.04,clear sky,0.0,0.0
223,Musoma,TZ,2020-04-19 00:01:02,-1.5,33.8,66.2,93,75,2.71,broken clouds,0.0,0.0
224,Arraial Do Cabo,BR,2020-04-19 00:01:02,-22.97,-42.03,74.16,71,97,8.01,overcast clouds,0.0,0.0
225,Xuddur,SO,2020-04-19 00:01:02,4.12,43.89,76.78,68,100,13.18,overcast clouds,0.0,0.0
226,Salalah,OM,2020-04-19 00:01:02,17.02,54.09,82.4,69,40,4.7,scattered clouds,0.0,0.0
227,Road Town,VG,2020-04-19 00:01:02,18.42,-64.62,80.01,84,10,13.0,clear sky,0.0,0.0
228,Muroto,JP,2020-04-19 00:01:02,33.28,134.15,60.8,51,75,16.11,broken clouds,0.0,0.0
229,Borovskoy,KZ,2020-04-19 00:01:02,53.8,64.15,42.82,88,61,8.21,broken clouds,0.0,0.0
230,Hovd,MN,2020-04-18 23:59:39,48.01,91.64,34.7,40,1,3.38,clear sky,0.0,0.0
231,Abu Samrah,SY,2020-04-19 00:01:02,35.3,37.18,62.62,54,11,3.4,few clouds,0.0,0.0
232,Fortuna,US,2020-04-19 00:01:02,40.6,-124.16,57.99,76,90,6.93,overcast clouds,0.0,0.0
233,Northam,GB,2020-04-18 23:56:31,51.03,-4.22,52.0,94,48,1.01,scattered clouds,0.0,0.0
234,Panacan,PH,2020-04-19 00:01:03,9.25,118.41,80.6,74,20,6.93,few clouds,0.0,0.0
235,Diego De Almagro,CL,2020-04-19 00:01:03,-26.37,-70.05,59.94,39,0,1.83,clear sky,0.0,0.0
236,Porto Velho,BR,2020-04-18 23:56:14,-8.76,-63.9,80.6,69,40,5.82,scattered clouds,0.0,0.0
237,General Roca,AR,2020-04-19 00:01:03,-39.03,-67.58,78.8,44,83,5.82,broken clouds,0.0,0.0
238,Hasaki,JP,2020-04-19 00:01:03,35.73,140.83,64.0,51,20,8.05,few clouds,0.0,0.0
239,Puerto Ayora,EC,2020-04-19 00:01:03,-0.74,-90.35,84.2,74,40,9.17,scattered clouds,0.0,0.0
240,Ushtobe,KZ,2020-04-19 00:01:03,45.25,77.98,50.97,44,0,5.12,clear sky,0.0,0.0
241,Florianopolis,BR,2020-04-19 00:01:03,-27.61,-48.5,68.0,82,20,2.24,few clouds,0.0,0.0
242,Tabas,IR,2020-04-19 00:01:03,33.6,56.92,66.2,42,73,2.24,broken clouds,0.0,0.0
243,Ati,TD,2020-04-19 00:01:03,13.22,18.34,81.28,13,1,11.43,clear sky,0.0,0.0
244,Adrar,MR,2020-04-19 00:01:03,20.5,-10.07,74.77,35,80,10.36,light rain,0.16,0.0
245,Sechura,PE,2020-04-19 00:01:03,-5.56,-80.82,75.92,69,0,14.52,clear sky,0.0,0.0
246,Finschhafen,PG,2020-04-19 00:01:03,-6.6,147.87,84.36,66,57,1.05,broken clouds,0.0,0.0
247,Sao Filipe,CV,2020-04-19 00:01:03,14.9,-24.5,71.13,72,28,19.19,scattered clouds,0.0,0.0
248,Katherine,AU,2020-04-19 00:01:03,-14.47,132.27,86.0,51,11,5.82,few clouds,0.0,0.0
249,Grand-Santi,GF,2020-04-19 00:01:03,4.25,-54.38,74.77,93,77,2.82,light rain,1.42,0.0
250,Leningradskiy,RU,2020-04-19 00:01:03,69.38,178.42,5.61,88,4,8.75,clear sky,0.0,0.0
251,Belaya Gora,RU,2020-04-18 23:57:27,68.53,146.42,2.44,88,12,6.04,few clouds,0.0,0.0
252,Ormara,PK,2020-04-19 00:01:03,25.21,64.64,76.37,86,55,10.27,broken clouds,0.0,0.0
253,Souillac,MU,2020-04-19 00:00:43,-20.52,57.52,77.0,83,40,11.41,shower rain,0.0,0.0
254,Mogadouro,PT,2020-04-19 00:01:04,41.34,-6.71,47.5,68,89,2.44,overcast clouds,0.0,0.0
255,Bambous Virieux,MU,2020-04-19 00:01:04,-20.34,57.76,77.0,83,40,11.41,shower rain,0.0,0.0
256,Mahebourg,MU,2020-04-18 23:59:30,-20.41,57.7,77.0,83,40,11.41,shower rain,0.0,0.0
257,Port Elizabeth,ZA,2020-04-18 23:57:03,-33.92,25.57,60.8,100,0,1.12,fog,0.0,0.0
258,Narsaq,GL,2020-04-19 00:01:04,60.92,-46.05,30.2,50,93,1.12,light snow,0.0,0.35
259,Kiunga,PG,2020-04-19 00:01:04,-6.12,141.29,78.48,88,99,0.47,overcast clouds,0.0,0.0
260,Brewster,US,2020-04-19 00:00:12,41.4,-73.62,39.99,75,72,6.71,light rain,0.15,0.0
261,Mercedes,AR,2020-04-18 23:56:22,-34.65,-59.43,66.0,82,0,8.57,clear sky,0.0,0.0
262,Nizhniy Odes,RU,2020-04-19 00:01:04,63.64,54.86,32.32,92,99,3.09,overcast clouds,0.0,0.0
263,Hohhot,CN,2020-04-19 00:01:04,40.81,111.65,42.8,87,20,8.95,mist,0.0,0.0
264,Lavrentiya,RU,2020-04-18 23:57:52,65.58,-171.0,20.88,95,100,9.64,light snow,0.0,0.44
265,Pinotepa Nacional,MX,2020-04-19 00:01:04,16.32,-98.02,85.35,57,51,6.76,broken clouds,0.0,0.0
266,Peleduy,RU,2020-04-19 00:01:04,59.63,112.74,19.67,89,53,6.51,broken clouds,0.0,0.0
267,Pingxiang,CN,2020-04-19 00:01:04,27.62,113.85,60.75,86,100,3.13,light rain,1.92,0.0
268,Poum,NC,2020-04-19 00:01:04,-20.23,164.02,78.94,75,52,12.77,broken clouds,0.0,0.0
269,Wucheng,CN,2020-04-19 00:01:04,29.6,118.17,63.36,86,100,2.95,moderate rain,5.16,0.0
270,Meadow Lake,US,2020-04-19 00:01:04,34.8,-106.54,68.0,13,75,17.22,broken clouds,0.0,0.0
271,Zhezkazgan,KZ,2020-04-19 00:01:04,47.8,67.71,52.39,48,57,7.54,broken clouds,0.0,0.0
272,Ozinki,RU,2020-04-18 23:59:12,51.18,49.68,37.29,90,21,6.58,few clouds,0.0,0.0
273,Nanortalik,GL,2020-04-19 00:01:04,60.14,-45.24,28.76,92,89,5.21,light snow,0.0,0.28
274,Bandarbeyla,SO,2020-04-19 00:01:04,9.49,50.81,80.62,73,43,8.03,scattered clouds,0.0,0.0
275,Praya,CV,2020-04-19 00:01:05,14.92,-23.51,71.6,64,40,18.34,scattered clouds,0.0,0.0
276,Tornio,FI,2020-04-19 00:01:05,65.85,24.15,32.0,97,59,3.36,broken clouds,0.0,0.0
277,Broome,US,2020-04-18 23:57:43,42.25,-75.83,39.99,59,75,6.93,light rain,0.0,0.0
278,Chokurdakh,RU,2020-04-18 23:57:15,70.63,147.92,0.03,89,100,10.31,overcast clouds,0.0,0.0
279,Ostrovnoy,RU,2020-04-19 00:01:05,68.05,39.51,31.75,98,98,9.89,light snow,0.0,0.13
280,Vardo,NO,2020-04-19 00:01:05,70.37,31.11,36.64,81,90,18.32,overcast clouds,0.0,0.0
281,Cayenne,GF,2020-04-19 00:00:05,4.93,-52.33,80.6,83,90,4.7,overcast clouds,0.0,0.0
282,Klaksvik,FO,2020-04-18 23:58:58,62.23,-6.59,42.8,81,0,11.41,clear sky,0.0,0.0
283,Sumter,US,2020-04-18 23:56:06,28.71,-82.08,78.01,80,100,4.0,light rain,0.88,0.0
284,Torva,EE,2020-04-19 00:01:05,58.0,25.93,37.0,93,99,5.82,overcast clouds,0.0,0.0
285,Mormugao,IN,2020-04-19 00:01:05,15.4,73.8,79.0,87,28,2.08,scattered clouds,0.0,0.0
286,Husavik,IS,2020-04-18 23:56:17,66.04,-17.34,46.4,70,75,34.45,broken clouds,0.0,0.0
287,Cabedelo,BR,2020-04-18 23:56:34,-6.98,-34.83,80.6,88,20,4.18,few clouds,0.0,0.0
288,Chapais,CA,2020-04-19 00:01:05,49.78,-74.85,39.2,38,75,8.05,broken clouds,0.0,0.0
289,Tromso,NO,2020-04-19 00:01:05,69.65,18.96,39.2,93,90,14.99,light rain,0.0,0.0
290,Yantal,RU,2020-04-19 00:01:05,56.85,105.25,20.35,86,41,8.97,scattered clouds,0.0,0.0
291,Erenhot,CN,2020-04-18 23:56:52,43.65,111.98,44.96,60,76,7.65,light rain,0.88,0.0
292,Yulara,AU,2020-04-18 23:56:30,-25.24,130.99,69.8,37,22,9.17,few clouds,0.0,0.0
293,Nenjiang,CN,2020-04-19 00:01:05,49.18,125.22,60.39,28,100,20.74,overcast clouds,0.0,0.0
294,Barrhead,GB,2020-04-19 00:01:05,55.8,-4.39,41.0,80,0,11.41,clear sky,0.0,0.0
295,Mirganj,IN,2020-04-19 00:01:05,28.55,79.2,76.37,33,51,6.93,broken clouds,0.0,0.0
296,Mingaora,PK,2020-04-19 00:01:05,34.78,72.36,55.76,44,94,6.42,light rain,0.12,0.0
297,Anchorage,US,2020-04-18 23:57:46,61.22,-149.9,51.8,66,90,6.93,overcast clouds,0.0,0.0
298,Ouesso,CG,2020-04-19 00:01:06,1.61,16.05,71.8,88,96,2.24,overcast clouds,0.0,0.0
299,Idaho Falls,US,2020-04-18 23:56:52,43.47,-112.03,59.0,18,1,5.82,clear sky,0.0,0.0
300,Leirvik,NO,2020-04-18 23:56:55,59.78,5.5,39.99,65,0,2.71,clear sky,0.0,0.0
301,Komsomolskiy,UZ,2020-04-18 23:56:33,40.43,71.72,53.6,62,4,4.7,clear sky,0.0,0.0
302,La Ronge,CA,2020-04-18 23:57:33,55.1,-105.28,32.0,81,75,12.75,broken clouds,0.0,0.0
303,Lufilufi,WS,2020-04-19 00:01:06,-13.87,-171.6,80.01,83,56,5.01,moderate rain,3.39,0.0
304,Lachi,PK,2020-04-19 00:01:06,33.38,71.34,64.72,57,33,3.38,scattered clouds,0.0,0.0
305,Ust-Nera,RU,2020-04-19 00:01:06,64.57,143.2,0.48,76,93,6.11,overcast clouds,0.0,0.0
306,San Gabriel,US,2020-04-19 00:01:06,34.1,-118.11,66.2,59,75,5.82,broken clouds,0.0,0.0
307,Aleksandrovskiy Zavod,RU,2020-04-19 00:01:06,50.92,117.94,24.4,76,92,12.06,overcast clouds,0.0,0.0
308,Along,IN,2020-04-18 23:56:59,28.17,94.77,65.39,68,69,2.89,light rain,1.92,0.0
309,Yola,NG,2020-04-19 00:01:06,9.2,12.48,84.34,40,90,2.93,overcast clouds,0.0,0.0
310,Shimoda,JP,2020-04-18 23:58:02,34.67,138.95,64.4,63,20,5.82,few clouds,0.0,0.0
311,Gouda,NL,2020-04-18 23:56:21,52.02,4.71,53.01,87,90,3.36,overcast clouds,0.0,0.0
312,Namibe,AO,2020-04-19 00:01:06,-15.2,12.15,74.98,69,70,5.79,light rain,0.28,0.0
313,Tutoia,BR,2020-04-19 00:01:06,-2.76,-42.27,78.96,83,100,4.54,overcast clouds,0.0,0.0
314,Santa Elena,EC,2020-04-19 00:01:06,-2.23,-80.85,80.6,69,25,4.7,scattered clouds,0.0,0.0
315,Vestmanna,FO,2020-04-18 23:57:53,62.16,-7.17,42.8,81,0,11.41,clear sky,0.0,0.0
316,Hualmay,PE,2020-04-19 00:01:07,-11.1,-77.61,70.79,78,29,7.43,scattered clouds,0.0,0.0
317,Hambantota,LK,2020-04-19 00:00:14,6.12,81.12,80.44,83,24,5.95,few clouds,0.0,0.0
318,Stuttgart,DE,2020-04-19 00:00:54,48.78,9.18,55.99,81,64,2.24,broken clouds,0.0,0.0
319,Pitlochry,GB,2020-04-19 00:01:07,56.71,-3.73,39.99,86,0,1.86,clear sky,0.0,0.0
320,Vaitape,PF,2020-04-19 00:00:43,-16.52,-151.75,83.64,74,22,10.49,light rain,2.43,0.0
321,Bokoro,TD,2020-04-19 00:01:07,12.38,17.06,81.21,12,36,8.86,scattered clouds,0.0,0.0
322,Egvekinot,RU,2020-04-18 23:58:47,66.32,-179.17,8.58,89,100,20.69,light snow,0.0,0.57
323,Butembo,CD,2020-04-19 00:01:07,0.15,29.28,58.17,64,100,1.07,light rain,0.25,0.0
324,Victoria,HK,2020-04-19 00:01:05,22.29,114.16,75.99,88,43,3.56,scattered clouds,0.0,0.0
325,Honiara,SB,2020-04-19 00:01:07,-9.43,159.95,86.0,74,40,3.36,scattered clouds,0.0,0.0
326,Cidreira,BR,2020-04-19 00:01:07,-30.18,-50.21,67.82,81,0,12.93,clear sky,0.0,0.0
327,Kavaratti,IN,2020-04-18 23:58:32,10.57,72.64,83.97,73,3,6.67,clear sky,0.0,0.0
328,Kamina,CD,2020-04-19 00:01:07,-8.74,24.99,65.44,70,99,1.81,light rain,2.76,0.0
329,Astana,KZ,2020-04-18 23:58:12,51.18,71.45,41.0,86,68,4.47,broken clouds,0.0,0.0
330,Bhalwal,PK,2020-04-19 00:01:08,32.27,72.9,68.43,61,0,4.32,clear sky,0.0,0.0
331,Qaqortoq,GL,2020-04-19 00:01:08,60.72,-46.03,30.2,50,93,1.12,light snow,0.0,0.41
332,Polewali,ID,2020-04-19 00:01:08,-3.43,119.34,82.06,75,82,1.43,light rain,0.31,0.0
333,Kismayo,SO,2020-04-19 00:01:08,-0.36,42.55,83.16,77,100,7.11,light rain,0.39,0.0
334,Chabahar,IR,2020-04-19 00:01:08,25.29,60.64,73.4,88,49,4.7,scattered clouds,0.0,0.0
335,Magistralnyy,RU,2020-04-19 00:00:10,56.17,107.45,21.25,86,72,13.96,broken clouds,0.0,0.0
336,Havre-Saint-Pierre,CA,2020-04-19 00:01:08,50.23,-63.6,32.0,93,1,10.29,clear sky,0.0,0.0
337,Manicore,BR,2020-04-19 00:01:08,-5.81,-61.3,74.8,94,74,0.67,light rain,0.85,0.0
338,Sovetskiy,RU,2020-04-19 00:01:08,61.36,63.58,36.23,91,94,10.36,light rain,0.34,0.0
339,Lorengau,PG,2020-04-18 23:59:09,-2.02,147.27,84.83,69,10,2.62,clear sky,0.0,0.0
340,Olinda,BR,2020-04-19 00:01:08,-8.01,-34.86,84.2,74,40,4.7,scattered clouds,0.0,0.0
341,Batagay,RU,2020-04-18 23:56:09,67.63,134.63,1.18,84,62,2.62,broken clouds,0.0,0.0
342,Cody,US,2020-04-19 00:01:08,44.53,-109.06,57.2,22,40,16.11,scattered clouds,0.0,0.0
343,Pacific Grove,US,2020-04-19 00:00:22,36.62,-121.92,62.6,51,90,10.29,overcast clouds,0.0,0.0
344,Tufanganj,IN,2020-04-19 00:01:08,26.32,89.67,70.99,78,22,4.21,light rain,1.82,0.0
345,Bathsheba,BB,2020-04-18 23:56:28,13.22,-59.52,79.14,76,19,17.78,few clouds,0.0,0.0
346,Alofi,NU,2020-04-19 00:00:33,-19.06,-169.92,84.2,74,51,17.22,light rain,0.25,0.0
347,Aloleng,PH,2020-04-19 00:01:09,16.13,119.78,83.8,68,92,7.94,overcast clouds,0.0,0.0
348,Zalantun,CN,2020-04-19 00:01:09,48.0,122.72,56.37,37,100,9.71,overcast clouds,0.0,0.0
349,Skibbereen,IE,2020-04-19 00:01:09,51.55,-9.27,46.4,93,90,14.99,light intensity drizzle,0.0,0.0
350,Poltavka,RU,2020-04-19 00:01:09,54.37,71.76,51.94,61,100,6.35,overcast clouds,0.0,0.0
351,Terenos,BR,2020-04-19 00:01:09,-20.44,-54.86,71.6,68,0,5.82,clear sky,0.0,0.0
352,Filingue,NE,2020-04-19 00:01:09,14.35,3.32,85.95,11,0,8.5,clear sky,0.0,0.0
353,Manokwari,ID,2020-04-19 00:01:09,-0.87,134.08,85.03,65,96,1.99,light rain,1.64,0.0
354,Baracoa,CU,2020-04-19 00:01:09,20.35,-74.5,78.94,79,4,7.94,clear sky,0.0,0.0
355,Maxixe,MZ,2020-04-19 00:01:09,-23.86,35.35,73.62,79,32,12.53,scattered clouds,0.0,0.0
356,Bloemfontein,ZA,2020-04-18 23:59:00,-29.12,26.21,53.6,100,34,3.36,scattered clouds,0.0,0.0
357,Hobyo,SO,2020-04-19 00:01:09,5.35,48.53,83.7,74,89,10.13,light rain,1.56,0.0
358,Lokosovo,RU,2020-04-19 00:01:09,61.13,74.82,46.53,87,100,8.48,overcast clouds,0.0,0.0
359,Khon Buri,TH,2020-04-19 00:01:09,14.53,102.25,84.0,88,20,3.36,few clouds,0.0,0.0
360,Aksu,CN,2020-04-19 00:01:09,41.12,80.26,53.56,41,95,3.76,overcast clouds,0.0,0.0
361,Kaeo,NZ,2020-04-19 00:01:09,-35.1,173.78,68.0,84,91,1.99,overcast clouds,0.0,0.0
362,Hanna,CA,2020-04-19 00:01:09,51.63,-111.9,39.99,47,85,5.01,overcast clouds,0.0,0.0
363,Concepcion Del Uruguay,AR,2020-04-19 00:01:09,-32.48,-58.24,70.0,60,0,1.99,clear sky,0.0,0.0
364,Shu,KZ,2020-04-18 23:56:30,43.6,73.76,49.19,41,0,4.9,clear sky,0.0,0.0
365,Tezu,IN,2020-04-19 00:01:10,27.92,96.17,68.9,69,78,1.88,light rain,0.6,0.0
366,Batamshinskiy,KZ,2020-04-19 00:01:10,50.56,58.27,39.2,100,75,6.71,broken clouds,0.0,0.0
367,Ust-Kuyga,RU,2020-04-19 00:01:10,70.02,135.6,3.54,83,88,4.61,overcast clouds,0.0,0.0
368,Ola,RU,2020-04-19 00:01:10,59.58,151.28,12.81,85,100,12.71,overcast clouds,0.0,0.0
369,Tasiilaq,GL,2020-04-18 23:59:20,65.61,-37.64,32.0,95,99,13.87,light rain,0.0,0.0
370,Furtwangen,DE,2020-04-19 00:01:10,48.05,8.2,53.01,64,96,1.01,overcast clouds,0.0,0.0
371,Verkhnyaya Sinyachikha,RU,2020-04-19 00:01:10,57.98,61.67,33.17,88,0,7.61,clear sky,0.0,0.0
372,Sobolevo,RU,2020-04-19 00:00:47,54.43,31.9,34.38,82,94,8.84,overcast clouds,0.0,0.0
373,Taksimo,RU,2020-04-19 00:01:10,56.34,114.88,17.55,77,83,7.2,broken clouds,0.0,0.0
374,Ponta Delgada,PT,2020-04-19 00:01:10,37.73,-25.67,62.6,93,75,13.87,broken clouds,0.0,0.0
375,Semey,KZ,2020-04-19 00:01:10,50.41,80.23,33.8,86,0,2.01,clear sky,0.0,0.0
376,Muros,ES,2020-04-19 00:01:10,42.78,-9.06,51.01,93,16,1.41,few clouds,0.0,0.0
377,Saint-Augustin,CA,2020-04-19 00:01:10,51.23,-58.65,24.73,92,33,13.33,scattered clouds,0.0,0.0
378,Coahuayana,MX,2020-04-18 23:57:00,18.73,-103.68,86.0,45,20,11.41,few clouds,0.0,0.0
379,Gananoque,CA,2020-04-19 00:01:07,44.33,-76.17,43.0,72,24,10.0,few clouds,0.0,0.0
380,Pimentel,PE,2020-04-18 23:59:47,-6.84,-79.93,72.18,81,16,12.46,few clouds,0.0,0.0
381,Champerico,GT,2020-04-19 00:01:10,14.3,-91.92,85.77,63,52,6.26,broken clouds,0.0,0.0
382,Mount Hagen,PG,2020-04-19 00:01:10,-5.86,144.23,66.2,88,40,3.36,fog,0.0,0.0
383,Grand Gaube,MU,2020-04-19 00:01:10,-20.01,57.66,77.0,83,40,11.41,shower rain,0.0,0.0
384,Maragogi,BR,2020-04-19 00:00:41,-9.01,-35.22,80.46,81,100,7.34,light rain,1.06,0.0
385,Prince Rupert,CA,2020-04-18 23:59:58,54.32,-130.32,53.6,60,1,5.82,clear sky,0.0,0.0
386,Carutapera,BR,2020-04-19 00:01:11,-1.2,-46.02,79.18,84,91,5.48,light rain,0.16,0.0
387,Tautira,PF,2020-04-19 00:01:11,-17.73,-149.15,86.0,74,54,5.82,light rain,0.82,0.0
388,Coihaique,CL,2020-04-19 00:01:11,-45.58,-72.07,44.6,93,90,5.82,light rain,0.0,0.0
389,Sao Joao Da Barra,BR,2020-04-19 00:00:07,-21.64,-41.05,71.83,82,100,7.25,light rain,0.14,0.0
390,Eravur,LK,2020-04-19 00:00:26,7.77,81.61,79.39,85,52,4.25,broken clouds,0.0,0.0
391,Gari,RU,2020-04-19 00:01:11,59.43,62.35,33.67,88,34,10.38,scattered clouds,0.0,0.0
392,Atyrau,KZ,2020-04-19 00:01:11,47.12,51.88,46.4,70,100,6.71,overcast clouds,0.0,0.0
393,Port Macquarie,AU,2020-04-18 23:58:45,-31.43,152.92,70.0,76,54,5.19,broken clouds,0.0,0.0
394,Ivanava,BY,2020-04-19 00:01:11,52.15,25.54,35.4,78,56,4.97,broken clouds,0.0,0.0
395,Great Falls,US,2020-04-19 00:01:11,47.5,-111.3,42.01,86,90,8.05,overcast clouds,0.0,0.0
396,Christchurch,NZ,2020-04-19 00:01:11,-43.53,172.63,64.99,39,1,19.46,clear sky,0.0,0.0
397,Lata,PT,2020-04-18 23:57:05,40.16,-8.33,57.0,92,23,1.01,few clouds,0.0,0.0
398,Cantapoy,PH,2020-04-19 00:01:11,9.49,125.44,77.11,81,93,5.28,light rain,1.62,0.0
399,Bilma,NE,2020-04-18 23:57:35,18.69,12.92,82.65,13,10,6.73,clear sky,0.0,0.0
400,Viedma,AR,2020-04-19 00:01:11,-40.81,-63.0,77.49,31,99,19.71,overcast clouds,0.0,0.0
401,Codrington,AU,2020-04-18 23:57:20,-38.27,141.97,56.52,72,53,10.31,broken clouds,0.0,0.0
402,Loa Janan,ID,2020-04-19 00:01:11,-0.58,117.09,77.86,92,100,0.85,light rain,0.83,0.0
403,Yaan,NG,2020-04-19 00:01:03,7.38,8.57,81.46,69,89,11.43,overcast clouds,0.0,0.0
404,Forio,IT,2020-04-19 00:01:11,40.73,13.86,62.01,76,84,1.63,broken clouds,0.0,0.0
405,Jega,NG,2020-04-19 00:01:11,12.22,4.38,89.42,15,8,3.69,clear sky,0.0,0.0
406,Hami,CN,2020-04-19 00:01:11,42.8,93.45,61.09,22,96,8.79,overcast clouds,0.0,0.0
407,Miyako,JP,2020-04-19 00:01:12,39.64,141.95,44.69,88,100,26.37,moderate rain,6.76,0.0
408,Itagiba,BR,2020-04-19 00:01:12,-14.28,-39.84,72.01,89,82,2.64,light rain,0.52,0.0
409,Calvia,ES,2020-04-19 00:01:12,39.57,2.51,64.4,88,100,8.05,light rain,0.0,0.0
410,Roma,US,2020-04-19 00:00:27,43.21,-75.46,44.6,36,1,13.87,clear sky,0.0,0.0
411,Kuching,MY,2020-04-19 00:01:12,1.55,110.33,75.2,94,40,1.12,scattered clouds,0.0,0.0
412,Innisfail,AU,2020-04-19 00:00:23,-17.53,146.03,82.0,68,1,1.99,clear sky,0.0,0.0
413,Sorland,NO,2020-04-19 00:01:12,67.67,12.69,40.77,91,100,11.61,overcast clouds,0.0,0.0
414,Novyy Urengoy,RU,2020-04-19 00:01:12,66.08,76.63,36.66,97,100,16.37,light rain,0.54,0.0
415,Lompoc,US,2020-04-19 00:01:12,34.64,-120.46,59.0,62,90,10.29,overcast clouds,0.0,0.0
416,Reichenau,PL,2020-04-19 00:01:12,50.91,14.96,46.99,56,100,6.04,overcast clouds,0.0,0.0
417,Kigali,RW,2020-04-19 00:01:05,-1.95,30.06,64.4,100,75,3.36,mist,0.0,0.0
418,Roura,GF,2020-04-19 00:01:12,4.73,-52.33,80.6,83,90,4.7,overcast clouds,0.0,0.0
419,Balakhninskiy,RU,2020-04-19 00:01:12,58.01,114.28,18.95,79,0,6.42,clear sky,0.0,0.0
420,Chumikan,RU,2020-04-19 00:01:12,54.72,135.31,21.02,94,100,12.17,snow,0.0,2.5
421,Nuuk,GL,2020-04-18 23:59:41,64.18,-51.72,28.4,54,97,17.22,light shower snow,0.0,0.0
422,Huarmey,PE,2020-04-18 23:56:35,-10.07,-78.15,72.61,76,36,7.9,scattered clouds,0.0,0.0
423,Niono,ML,2020-04-19 00:01:13,14.25,-5.99,93.47,13,95,6.87,overcast clouds,0.0,0.0
424,Gorno-Altaysk,RU,2020-04-19 00:01:13,51.96,85.95,41.94,66,0,4.0,clear sky,0.0,0.0
425,San Cristobal,VE,2020-04-19 00:01:13,7.77,-72.22,70.36,61,62,0.83,light rain,1.52,0.0
426,Waingapu,ID,2020-04-19 00:01:13,-9.66,120.26,81.75,76,51,5.3,broken clouds,0.0,0.0
427,Hamilton,US,2020-04-19 00:01:13,39.18,-84.53,53.6,40,1,9.17,clear sky,0.0,0.0
428,Black River,JM,2020-04-19 00:01:13,18.03,-77.85,84.2,74,20,13.87,few clouds,0.0,0.0
429,Araxa,BR,2020-04-18 23:59:31,-19.59,-46.94,71.6,78,100,9.17,light rain,0.11,0.0
430,Flinders,AU,2020-04-19 00:01:13,-34.58,150.86,66.0,62,49,5.01,light rain,0.57,0.0
431,Douglas,US,2020-04-18 23:57:00,41.3,-96.17,73.4,20,90,6.93,overcast clouds,0.0,0.0
432,Alaca,TR,2020-04-19 00:01:13,40.17,34.84,47.82,49,0,2.71,clear sky,0.0,0.0
433,Mantua,IT,2020-04-19 00:01:13,45.17,10.78,57.0,76,89,3.0,overcast clouds,0.0,0.0
434,Pevek,RU,2020-04-19 00:01:13,69.7,170.31,3.22,91,30,7.29,scattered clouds,0.0,0.0
435,Praia Da Vitoria,PT,2020-04-19 00:00:18,38.73,-27.07,62.6,93,40,19.93,light rain,0.0,0.0
436,Suamico,US,2020-04-19 00:01:13,44.63,-88.04,62.6,33,20,20.8,few clouds,0.0,0.0
437,Porto Walter,BR,2020-04-19 00:01:13,-8.27,-72.74,71.8,67,23,2.06,few clouds,0.0,0.0
438,Naze,JP,2020-04-19 00:01:14,28.37,129.48,71.6,88,75,11.41,broken clouds,0.0,0.0
439,Sambava,MG,2020-04-19 00:01:14,-14.27,50.17,73.4,85,48,9.37,light rain,0.16,0.0
440,Chara,RU,2020-04-19 00:01:14,56.91,118.26,14.13,73,100,8.39,overcast clouds,0.0,0.0
441,Progreso,MX,2020-04-19 00:01:14,21.28,-89.67,102.2,24,20,18.34,few clouds,0.0,0.0
442,Tapejara,BR,2020-04-19 00:01:14,-28.07,-52.01,56.84,67,0,3.94,clear sky,0.0,0.0
443,Japura,ID,2020-04-19 00:01:14,-0.32,102.35,76.03,88,70,1.03,light rain,0.4,0.0
444,Baro,NG,2020-04-19 00:01:14,8.6,6.42,83.21,64,87,6.26,overcast clouds,0.0,0.0
445,Moyale,KE,2020-04-19 00:01:14,3.52,39.06,69.08,64,100,1.97,light rain,1.53,0.0
446,Menomonie,US,2020-04-19 00:01:14,44.88,-91.92,55.4,83,90,10.29,overcast clouds,0.0,0.0
447,Ramhormoz,IR,2020-04-19 00:01:14,31.28,49.6,69.46,54,91,11.86,light rain,1.4,0.0
448,Pochutla,MX,2020-04-19 00:00:15,15.74,-96.47,86.0,66,20,17.22,few clouds,0.0,0.0
449,Kletskaya,RU,2020-04-19 00:01:14,49.31,43.06,40.53,63,49,2.98,scattered clouds,0.0,0.0
450,Acapulco,MX,2020-04-19 00:01:14,16.86,-99.89,84.2,70,5,9.17,haze,0.0,0.0
451,Severodvinsk,RU,2020-04-18 23:59:31,64.56,39.83,33.8,98,40,4.47,scattered clouds,0.0,0.0
452,Camopi,GF,2020-04-19 00:01:14,3.17,-52.32,74.68,93,79,3.6,light rain,1.88,0.0
453,Luganville,VU,2020-04-19 00:01:14,-15.53,167.17,82.4,83,40,6.93,scattered clouds,0.0,0.0
454,Flin Flon,CA,2020-04-19 00:01:14,54.77,-101.86,24.8,38,20,12.75,few clouds,0.0,0.0
455,Batsfjord,NO,2020-04-19 00:01:14,70.63,29.72,31.14,94,94,10.78,overcast clouds,0.0,0.0
456,Hearst,CA,2020-04-19 00:01:14,49.68,-83.67,29.91,95,100,9.57,light snow,0.0,1.44
457,Manado,ID,2020-04-19 00:01:14,1.49,124.85,77.0,94,20,1.12,few clouds,0.0,0.0
458,Qasigiannguit,GL,2020-04-18 23:57:44,68.82,-51.19,23.0,85,95,8.05,overcast clouds,0.0,0.0
459,Kudahuvadhoo,MV,2020-04-19 00:01:14,2.67,72.89,83.86,79,79,12.75,light rain,1.53,0.0
460,Coquimbo,CL,2020-04-19 00:01:15,-29.95,-71.34,59.0,93,90,9.17,overcast clouds,0.0,0.0
461,Emba,KZ,2020-04-19 00:00:33,48.83,58.14,47.01,67,60,2.17,broken clouds,0.0,0.0
462,Lagos,NG,2020-04-18 23:56:29,6.58,3.75,84.2,83,40,4.7,scattered clouds,0.0,0.0
463,College,US,2020-04-19 00:00:16,64.86,-147.8,42.8,87,90,2.06,overcast clouds,0.0,0.0
464,Camacha,PT,2020-04-19 00:01:15,33.08,-16.33,62.6,72,20,10.29,few clouds,0.0,0.0
465,Asau,RO,2020-04-18 23:56:29,46.43,26.4,45.0,65,34,4.7,scattered clouds,0.0,0.0
466,Svetlyy,RU,2020-04-19 00:01:15,54.67,20.13,37.4,74,40,8.95,scattered clouds,0.0,0.0
467,Bull Savanna,JM,2020-04-19 00:01:15,17.89,-77.59,76.39,74,27,5.77,light rain,0.52,0.0
468,Salinopolis,BR,2020-04-19 00:01:15,-0.61,-47.36,80.83,81,99,6.22,overcast clouds,0.0,0.0
469,Helena,US,2020-04-18 23:58:23,46.59,-112.04,50.0,46,90,13.87,overcast clouds,0.0,0.0
470,Emerald,AU,2020-04-19 00:01:15,-23.53,148.17,81.0,65,40,9.17,scattered clouds,0.0,0.0
471,Dillon,US,2020-04-19 00:01:15,34.42,-79.37,68.0,37,1,5.82,clear sky,0.0,0.0
472,Murgud,IN,2020-04-19 00:01:15,16.4,74.2,76.48,64,40,2.08,scattered clouds,0.0,0.0
473,Binzhou,CN,2020-04-19 00:01:15,37.37,118.02,55.0,89,100,8.59,light rain,0.19,0.0
474,Astoria,US,2020-04-19 00:01:15,46.19,-123.83,53.6,76,90,11.41,overcast clouds,0.0,0.0
475,Teguise,ES,2020-04-19 00:01:15,29.06,-13.56,64.4,72,20,8.05,few clouds,0.0,0.0
476,Mecca,SA,2020-04-18 23:58:57,21.43,39.83,75.13,47,100,1.41,overcast clouds,0.0,0.0
477,Sanlucar La Mayor,ES,2020-04-19 00:01:15,37.39,-6.2,64.99,69,20,5.97,few clouds,0.0,0.0
478,Clearlake,US,2020-04-19 00:01:16,38.96,-122.63,64.99,58,78,1.01,broken clouds,0.0,0.0
479,Teguldet,RU,2020-04-19 00:01:16,57.31,88.17,36.99,77,8,9.91,clear sky,0.0,0.0
480,Margate,GB,2020-04-19 00:01:16,51.38,1.39,48.0,74,19,4.0,few clouds,0.0,0.0
481,Grootegast,NL,2020-04-19 00:01:16,53.21,6.27,46.0,73,23,1.01,few clouds,0.0,0.0
482,Sawtell,AU,2020-04-19 00:01:16,-30.38,153.1,71.6,68,90,5.82,overcast clouds,0.0,0.0
483,Aranos,NA,2020-04-19 00:01:16,-24.13,19.12,73.09,33,43,12.53,scattered clouds,0.0,0.0
484,Khani,GE,2020-04-19 00:01:16,41.96,42.96,46.4,93,100,2.24,light rain,1.19,0.0
485,Quatre Cocos,MU,2020-04-19 00:01:16,-20.21,57.76,77.0,83,40,11.41,shower rain,0.0,0.0
486,Khash,IR,2020-04-18 23:58:18,28.22,61.22,63.82,35,95,1.21,overcast clouds,0.0,0.0
487,Nara,JP,2020-04-18 23:57:35,34.69,135.8,60.01,62,75,12.75,broken clouds,0.0,0.0
488,Xining,CN,2020-04-19 00:00:37,36.62,101.77,45.3,26,100,2.59,overcast clouds,0.0,0.0
489,Guerrero Negro,MX,2020-04-19 00:01:16,27.98,-114.06,63.79,61,0,21.18,clear sky,0.0,0.0
490,Southbridge,US,2020-04-19 00:01:16,42.08,-72.03,37.99,87,75,2.51,broken clouds,0.0,0.0
491,Yanji,CN,2020-04-19 00:01:16,42.91,129.51,53.33,47,99,4.47,overcast clouds,0.0,0.0
492,Henties Bay,NA,2020-04-19 00:01:16,-22.12,14.28,55.99,95,0,1.99,clear sky,0.0,0.0
493,Boden,SE,2020-04-19 00:01:16,65.83,21.69,30.2,86,33,4.7,scattered clouds,0.0,0.0
494,Deputatskiy,RU,2020-04-19 00:01:16,69.3,139.9,-0.53,75,76,2.59,broken clouds,0.0,0.0
495,Juegang,CN,2020-04-19 00:01:17,32.32,121.19,54.0,96,100,14.2,moderate rain,8.21,0.0
496,Jaguey Grande,CU,2020-04-19 00:01:17,22.53,-81.13,89.6,46,20,9.17,few clouds,0.0,0.0
497,Elvas,PT,2020-04-18 23:56:30,38.88,-7.16,59.0,77,91,6.93,overcast clouds,0.0,0.0
498,Yarkovo,RU,2020-04-19 00:01:17,57.4,67.08,40.06,83,95,6.15,overcast clouds,0.0,0.0
499,Pathein,MM,2020-04-19 00:01:17,16.78,94.73,76.91,84,0,6.67,clear sky,0.0,0.0
500,Brooks,CA,2020-04-19 00:01:17,50.58,-111.89,44.01,43,99,8.01,overcast clouds,0.0,0.0
501,Batticaloa,LK,2020-04-18 23:58:11,7.71,81.69,80.17,82,53,4.72,broken clouds,0.0,0.0
502,Aklavik,CA,2020-04-19 00:00:53,68.22,-135.01,24.8,79,90,6.93,overcast clouds,0.0,0.0
503,Constitucion,CL,2020-04-19 00:01:17,-35.33,-72.42,59.74,91,76,10.0,broken clouds,0.0,0.0
504,Saint-Joseph,RE,2020-04-19 00:01:17,-21.37,55.62,77.0,78,20,16.11,few clouds,0.0,0.0
505,Harper,LR,2020-04-19 00:00:34,4.38,-7.72,80.13,84,100,9.17,light rain,0.47,0.0
506,De-Kastri,RU,2020-04-19 00:01:17,51.47,140.78,29.41,94,99,10.09,overcast clouds,0.0,0.0
507,Suluq,LY,2020-04-19 00:01:17,31.67,20.25,60.31,49,16,7.96,few clouds,0.0,0.0
508,Yar-Sale,RU,2020-04-19 00:01:17,66.83,70.83,34.54,98,99,12.06,light rain,0.26,0.0
509,Kobryn,BY,2020-04-19 00:01:17,52.21,24.36,36.18,75,49,4.05,scattered clouds,0.0,0.0
510,Saint-Leu,RE,2020-04-19 00:01:17,-21.15,55.28,77.0,78,20,16.11,few clouds,0.0,0.0
511,Minas,UY,2020-04-19 00:01:18,-34.38,-55.24,64.4,88,0,3.36,clear sky,0.0,0.0
512,Iquique,CL,2020-04-19 00:01:18,-20.22,-70.14,68.0,68,20,16.11,few clouds,0.0,0.0
513,Aksarka,RU,2020-04-19 00:01:02,66.56,67.8,32.41,96,100,4.74,light rain,0.36,0.0
514,Landau,DE,2020-04-19 00:01:18,49.21,8.11,57.0,72,33,3.4,scattered clouds,0.0,0.0
515,Tuy Hoa,VN,2020-04-18 23:57:19,13.08,109.3,79.38,79,89,4.36,overcast clouds,0.0,0.0
516,Gigmoto,PH,2020-04-18 23:58:09,13.78,124.39,82.08,77,83,13.62,light rain,0.22,0.0
517,Yarada,IN,2020-04-19 00:01:18,17.65,83.27,80.85,80,0,11.34,clear sky,0.0,0.0
518,Zhuanghe,CN,2020-04-19 00:01:18,39.7,122.99,57.0,73,100,1.01,overcast clouds,0.0,0.0
519,Mitu,CO,2020-04-18 23:58:23,1.2,-70.17,72.03,90,93,2.26,overcast clouds,0.0,0.0
520,Aviles,ES,2020-04-19 00:01:18,43.55,-5.92,57.0,93,75,2.24,light rain,0.0,0.0
521,Port Hardy,CA,2020-04-19 00:01:18,50.7,-127.42,55.4,71,20,4.7,few clouds,0.0,0.0
522,Tiznit,MA,2020-04-19 00:01:18,29.58,-9.5,56.71,69,78,10.16,light rain,0.41,0.0
523,Omsukchan,RU,2020-04-19 00:01:18,62.53,155.8,2.23,83,100,9.73,light snow,0.0,0.41
524,Kahului,US,2020-04-18 23:56:27,20.89,-156.47,84.2,51,20,16.11,few clouds,0.0,0.0
525,Mitsamiouli,KM,2020-04-19 00:01:18,-11.38,43.28,82.09,79,77,13.53,light rain,1.07,0.0
526,Yangambi,CD,2020-04-19 00:01:18,0.81,24.43,69.96,86,67,0.63,light rain,1.61,0.0
527,Buin,CL,2020-04-19 00:01:18,-33.73,-70.75,75.2,50,76,9.17,broken clouds,0.0,0.0
528,Kloulklubed,PW,2020-04-19 00:01:18,7.04,134.26,84.2,79,75,9.17,broken clouds,0.0,0.0
529,Turukhansk,RU,2020-04-19 00:01:18,65.82,87.98,38.75,77,100,16.98,overcast clouds,0.0,0.0
530,Ourem,PT,2020-04-19 00:01:03,39.64,-8.59,52.0,93,14,5.97,few clouds,0.0,0.0
531,Pedernales,DO,2020-04-19 00:01:18,18.04,-71.74,79.14,70,29,4.29,light rain,0.14,0.0
532,Ketchikan,US,2020-04-19 00:01:18,55.34,-131.65,57.2,58,1,16.11,clear sky,0.0,0.0
533,Fairbanks,US,2020-04-19 00:00:42,64.84,-147.72,42.8,100,90,2.01,overcast clouds,0.0,0.0
534,Altay,CN,2020-04-19 00:01:18,47.87,88.12,46.08,36,89,4.18,overcast clouds,0.0,0.0
535,San Pedro,PH,2020-04-19 00:01:18,14.35,121.02,86.0,74,40,5.82,scattered clouds,0.0,0.0
536,Nawa,IN,2020-04-19 00:01:19,27.02,75.0,76.53,35,40,8.21,scattered clouds,0.0,0.0
537,Pauini,BR,2020-04-19 00:01:19,-7.71,-66.98,74.75,69,3,2.37,clear sky,0.0,0.0
538,Pitimbu,BR,2020-04-19 00:01:19,-7.47,-34.81,80.6,88,20,5.61,few clouds,0.0,0.0
539,Pisco,PE,2020-04-18 23:59:34,-13.7,-76.22,69.8,73,17,18.34,few clouds,0.0,0.0
540,Pangnirtung,CA,2020-04-18 23:57:55,66.15,-65.71,3.31,85,97,4.18,overcast clouds,0.0,0.0
541,Kijang,KR,2020-04-19 00:01:19,35.24,129.21,53.6,76,75,5.82,broken clouds,0.0,0.0
542,Nevsehir,TR,2020-04-19 00:01:19,38.92,34.67,48.97,36,12,1.21,few clouds,0.0,0.0
543,Avera,US,2020-04-18 23:57:43,33.19,-82.53,71.6,30,1,8.05,clear sky,0.0,0.0
544,Puerto Colombia,CO,2020-04-19 00:01:19,10.99,-74.95,82.4,74,20,8.05,few clouds,0.0,0.0
545,Barcelona,ES,2020-04-19 00:01:10,41.39,2.16,61.0,93,40,11.41,light rain,0.0,0.0
546,Iwanai,JP,2020-04-19 00:01:19,42.97,140.51,54.5,56,94,1.59,overcast clouds,0.0,0.0
547,Nueva Loja,EC,2020-04-19 00:01:19,0.08,-76.88,73.4,94,90,1.12,overcast clouds,0.0,0.0
548,Huichapan,MX,2020-04-19 00:01:19,20.38,-99.65,86.0,20,75,12.75,broken clouds,0.0,0.0
549,Vikhorevka,RU,2020-04-19 00:01:19,56.12,101.16,24.8,38,0,4.47,clear sky,0.0,0.0
550,Sangmelima,CM,2020-04-19 00:01:19,2.93,11.98,68.09,80,84,2.55,light rain,2.32,0.0
551,Tessalit,ML,2020-04-19 00:01:19,20.2,1.01,83.89,12,4,7.76,clear sky,0.0,0.0
552,Santa Cruz,BO,2020-04-18 23:59:16,-17.8,-63.17,73.4,49,3,4.7,clear sky,0.0,0.0
553,Tateyama,JP,2020-04-19 00:01:20,34.98,139.87,64.0,55,0,5.99,clear sky,0.0,0.0
554,Ranong,TH,2020-04-19 00:01:20,9.97,98.63,77.0,94,20,3.85,few clouds,0.0,0.0
555,Mbuji-Mayi,CD,2020-04-19 00:01:20,-6.15,23.6,71.65,77,98,4.9,light rain,2.07,0.0
556,Guangyuan,CN,2020-04-19 00:01:20,32.44,105.82,57.79,53,17,3.69,few clouds,0.0,0.0
557,Wiarton,CA,2020-04-19 00:01:20,44.74,-81.13,48.99,36,90,17.22,overcast clouds,0.0,0.0
558,Bayir,TR,2020-04-19 00:01:20,37.27,28.22,51.8,93,0,3.36,clear sky,0.0,0.0
559,Wilmington Island,US,2020-04-19 00:01:20,32.0,-80.97,80.6,51,1,11.41,clear sky,0.0,0.0
560,Kirakira,SB,2020-04-19 00:01:20,-10.45,161.92,85.03,67,99,1.3,light rain,0.11,0.0
561,Kysyl-Syr,RU,2020-04-19 00:01:20,63.9,122.76,9.57,90,17,6.38,few clouds,0.0,0.0
562,Patzite,GT,2020-04-19 00:01:20,14.97,-91.22,63.0,70,13,5.97,few clouds,0.0,0.0
563,Frontera,MX,2020-04-19 00:01:20,26.93,-101.45,88.54,33,24,9.01,few clouds,0.0,0.0
